[{"name":"Cassin-Little","date_time":"2024-11-18 19:17:09","address":"15 Brickson Park Park","description":"Strain of intrns musc/fasc/tend l mid finger at wrs/hnd lv","costs":96185,"latitude":4.7107775874,"longitude":-74.0706650353},
{"name":"Abernathy, Cormier and Boyle","date_time":"2024-10-07 21:13:02","address":"229 2nd Crossing","description":"External constriction of right ear, sequela","costs":69909,"latitude":4.7745291512,"longitude":-74.0958598174},
{"name":"Heaney, Emmerich and Nikolaus","date_time":"2024-11-16 12:11:16","address":"8635 Hanson Trail","description":"Laceration of left quadriceps musc/fasc/tend, sequela","costs":53688,"latitude":4.718967593,"longitude":-74.0601441808},
{"name":"Feest LLC","date_time":"2024-10-23 04:20:56","address":"9989 Sutteridge Place","description":"Puncture wound with foreign body, unspecified foot, sequela","costs":81115,"latitude":4.7045944808,"longitude":-74.0841951185},
{"name":"Crist, Zulauf and Maggio","date_time":"2024-11-06 06:55:15","address":"91545 Iowa Road","description":"Hemiplga following cerebral infrc aff right dominant side","costs":81100,"latitude":4.7096245552,"longitude":-73.9975153735},
{"name":"Halvorson, Kunze and Hodkiewicz","date_time":"2024-09-30 05:01:17","address":"92778 Hanover Parkway","description":"Aural vertigo, bilateral","costs":73945,"latitude":4.7584128197,"longitude":-74.1152817168},
{"name":"Botsford-McClure","date_time":"2024-10-01 06:14:00","address":"3436 Commercial Street","description":"Open bite of left upper arm, initial encounter","costs":94921,"latitude":4.7397154828,"longitude":-74.0438694246},
{"name":"Quigley-Satterfield","date_time":"2024-10-18 13:58:45","address":"34383 Buena Vista Court","description":"Poisoning by antiasthmatics, undetermined, subs encntr","costs":72535,"latitude":4.7757373695,"longitude":-74.0375842665},
{"name":"Auer-Feeney","date_time":"2024-10-28 16:46:41","address":"0030 Westridge Terrace","description":"Acute lacrimal canaliculitis of unspecified lacrimal passage","costs":51602,"latitude":4.7378745539,"longitude":-74.058543209},
{"name":"O'Keefe-Wyman","date_time":"2024-10-16 18:01:13","address":"98 Barnett Court","description":"Abrasion of right hand, initial encounter","costs":68831,"latitude":4.7452447185,"longitude":-74.1285757861},
{"name":"Schuster, Windler and Emmerich","date_time":"2024-11-06 23:59:46","address":"8 Bunker Hill Pass","description":"Seborrheic dermatitis, unspecified","costs":90448,"latitude":4.6846361461,"longitude":-74.0677535819},
{"name":"Considine, Ortiz and Schmeler","date_time":"2024-10-09 22:31:27","address":"02 Pennsylvania Hill","description":"Unspecified subluxation of left middle finger, subs encntr","costs":60977,"latitude":4.7646762579,"longitude":-73.9608926988},
{"name":"Heller and Sons","date_time":"2024-10-19 10:41:33","address":"43 Buell Parkway","description":"Open bite of thumb without damage to nail","costs":74761,"latitude":4.8360054819,"longitude":-74.070895739},
{"name":"Reynolds-Hirthe","date_time":"2024-11-23 13:56:00","address":"8719 Scofield Road","description":"Fusion of spine, thoracic region","costs":96254,"latitude":4.7543919067,"longitude":-74.0126431026},
{"name":"Kuhlman-Beatty","date_time":"2024-11-03 01:20:26","address":"498 Summerview Center","description":"Superficial foreign body of scalp, subsequent encounter","costs":95376,"latitude":4.7317924114,"longitude":-73.987042737},
{"name":"Berge-Kohler","date_time":"2024-11-24 06:37:56","address":"234 Dapin Road","description":"Infect/inflm reaction due to oth internal joint prosthesis","costs":52883,"latitude":4.7401063881,"longitude":-73.9948512456},
{"name":"Pagac, Bahringer and Rutherford","date_time":"2024-10-26 05:51:03","address":"26114 Fair Oaks Road","description":"Unsp injury of radial artery at wrs/hnd lv of unsp arm","costs":78314,"latitude":4.761311125,"longitude":-74.019278575},
{"name":"Bergnaum Inc","date_time":"2024-10-22 17:34:40","address":"15298 Shoshone Terrace","description":"Unsp inj intrinsic musc/fasc/tend l rng fngr at wrs/hnd lv","costs":66191,"latitude":4.6853600889,"longitude":-73.999626198},
{"name":"Hickle-Schmeler","date_time":"2024-10-04 14:21:24","address":"11128 Thierer Parkway","description":"Nondisp seg fx shaft of l fibula, 7thK","costs":76193,"latitude":4.8118170973,"longitude":-74.008009898},
{"name":"Terry, Hodkiewicz and McDermott","date_time":"2024-10-05 09:16:04","address":"22 Basil Way","description":"Other visual disturbances","costs":83842,"latitude":4.8051002607,"longitude":-74.1063551803},
{"name":"Smitham-McKenzie","date_time":"2024-10-10 14:22:59","address":"09386 Laurel Way","description":"Collapsed vertebra, NEC, lumbosacral region, init","costs":61399,"latitude":4.7666970183,"longitude":-74.0191646083},
{"name":"Grady-Wiza","date_time":"2024-10-16 11:21:56","address":"330 Crest Line Junction","description":"Fluency disorder in conditions classified elsewhere","costs":70379,"latitude":4.7712460899,"longitude":-74.0955577867},
{"name":"Bogisich Inc","date_time":"2024-10-31 14:43:11","address":"237 Harbort Avenue","description":"Contusion of heart, unsp w or w/o hemopericardium, subs","costs":75763,"latitude":4.7907073168,"longitude":-74.0020800304},
{"name":"Rippin, Rice and Pfeffer","date_time":"2024-10-14 05:54:26","address":"14063 Crowley Pass","description":"Unsp fracture of shaft of left tibia, init for clos fx","costs":77016,"latitude":4.7646762579,"longitude":-74.0705365689},
{"name":"DuBuque-Klocko","date_time":"2024-11-14 10:03:00","address":"08127 Bluestem Trail","description":"Unsp superficial injury of left middle finger, init encntr","costs":75777,"latitude":4.7798887378,"longitude":-74.0189764069},
{"name":"Swift, Grimes and Hansen","date_time":"2024-10-03 15:48:26","address":"2 Loftsgordon Alley","description":"Pathological fracture, unsp site, subs for fx w delay heal","costs":94153,"latitude":4.7467100344,"longitude":-74.0577974901},
{"name":"Rogahn Group","date_time":"2024-11-18 05:45:22","address":"8 Spohn Pass","description":"Pedl cyc driver injured in clsn w 2/3-whl mv in traf, init","costs":91145,"latitude":4.7703295133,"longitude":-74.0716169594},
{"name":"Rath-Blick","date_time":"2024-11-21 20:49:38","address":"9 Toban Crossing","description":"Minimally displ Zone II fx sacrum, subs for fx w nonunion","costs":61268,"latitude":4.7871340372,"longitude":-74.0747000188},
{"name":"Marquardt and Sons","date_time":"2024-11-14 17:15:58","address":"4984 Tony Hill","description":"Scleral ectasia, unspecified eye","costs":50444,"latitude":4.7730052541,"longitude":-74.0528781961},
{"name":"Bosco LLC","date_time":"2024-11-12 14:26:40","address":"356 Larry Pass","description":"Path fx in oth disease, l ankle, subs for fx w routn heal","costs":70701,"latitude":4.7591957494,"longitude":-74.0650632273}]